@NikonAW100/ver1.0/wgs84
$GPGGA,063322.000,4913.6776,N,01736.2935,E,1,07,1.1,285.7,M,42.8,M,,0000*5A
$GPRMC,063322.000,A,4913.6776,N,01736.2935,E,2.20,257.92,250212,,,A*64
$GPGGA,063422.000,4913.6774,N,01736.2451,E,1,08,1.0,290.9,M,42.8,M,,0000*54
$GPRMC,063422.000,A,4913.6774,N,01736.2451,E,2.17,253.82,250212,,,A*6F
$GPGGA,063523.000,4913.6705,N,01736.1843,E,1,10,0.8,295.9,M,42.8,M,,0000*5B
$GPRMC,063523.000,A,4913.6705,N,01736.1843,E,3.22,262.72,250212,,,A*6F
$GPGGA,063624.000,4913.6685,N,01736.1803,E,1,11,0.8,296.4,M,42.8,M,,0000*5D
$GPRMC,063624.000,A,4913.6685,N,01736.1803,E,0.00,240.96,250212,,,A*6F
$GPGGA,063724.000,4913.6858,N,01736.1460,E,1,09,1.0,138.3,M,42.8,M,,0000*5B
$GPRMC,063724.000,A,4913.6858,N,01736.1460,E,0.61,70.07,250212,,,A*57
$GPGGA,063824.000,4913.6584,N,01736.1197,E,1,09,1.4,299.3,M,42.8,M,,0000*59
$GPRMC,063824.000,A,4913.6584,N,01736.1197,E,2.63,258.80,250212,,,A*6E
$GPGGA,063924.000,4913.6538,N,01736.1158,E,1,09,0.9,321.7,M,42.8,M,,0000*56
$GPRMC,063924.000,A,4913.6538,N,01736.1158,E,2.72,61.72,250212,,,A*5E
$GPGGA,064024.000,4913.6688,N,01736.1746,E,1,07,1.1,293.4,M,42.8,M,,0000*55
$GPRMC,064024.000,A,4913.6688,N,01736.1746,E,0.38,67.81,250212,,,A*57
$GPGGA,064125.000,4913.6723,N,01736.2058,E,1,10,0.8,295.4,M,42.8,M,,0000*56
$GPRMC,064125.000,A,4913.6723,N,01736.2058,E,0.00,78.80,250212,,,A*58
$GPGGA,064224.000,4913.6833,N,01736.2655,E,1,10,0.8,347.0,M,42.8,M,,0000*5B
$GPRMC,064224.000,A,4913.6833,N,01736.2655,E,2.78,102.18,250212,,,A*6F
$GPGGA,064325.000,4913.6808,N,01736.3244,E,1,09,0.9,286.5,M,42.8,M,,0000*56
$GPRMC,064325.000,A,4913.6808,N,01736.3244,E,3.21,75.44,250212,,,A*57
$GPGGA,064426.000,4913.6946,N,01736.3875,E,1,09,0.9,280.5,M,42.8,M,,0000*57
$GPRMC,064426.000,A,4913.6946,N,01736.3875,E,0.01,75.12,250212,,,A*52
$GPGGA,064526.000,4913.7021,N,01736.4250,E,1,09,0.9,266.8,M,42.8,M,,0000*50
$GPRMC,064526.000,A,4913.7021,N,01736.4250,E,0.00,90.98,250212,,,A*58
$GPGGA,064627.000,4913.7012,N,01736.4739,E,1,10,0.8,263.7,M,42.8,M,,0000*5B
$GPRMC,064626.000,A,4913.7015,N,01736.4722,E,3.14,101.97,250212,,,A*6C
$GPGGA,064727.000,4913.6868,N,01736.5334,E,1,10,0.8,262.2,M,42.8,M,,0000*52
$GPRMC,064727.000,A,4913.6868,N,01736.5334,E,1.39,96.46,250212,,,A*53
$GPGGA,064827.000,4913.6498,N,01736.5870,E,1,10,0.8,256.8,M,42.8,M,,0000*58
$GPRMC,064827.000,A,4913.6498,N,01736.5870,E,1.89,123.12,250212,,,A*61
$GPGGA,064927.000,4913.6142,N,01736.6624,E,1,09,0.9,295.4,M,42.8,M,,0000*5D
$GPRMC,064927.000,A,4913.6142,N,01736.6624,E,2.17,128.61,250212,,,A*65
$GPGGA,065027.000,4913.6189,N,01736.7292,E,1,09,0.9,235.5,M,42.8,M,,0000*51
$GPRMC,065027.000,A,4913.6189,N,01736.7292,E,3.18,73.79,250212,,,A*5A
$GPGGA,065127.000,4913.6056,N,01736.7563,E,1,08,1.0,225.2,M,42.8,M,,0000*55
$GPRMC,065127.000,A,4913.6056,N,01736.7563,E,0.90,10.31,250212,,,A*5B
$GPGGA,065227.000,4913.6217,N,01736.7730,E,1,09,0.9,231.5,M,42.8,M,,0000*5E
$GPRMC,065227.000,A,4913.6217,N,01736.7730,E,0.71,171.33,250212,,,A*60
$GPGGA,065326.000,4913.6584,N,01736.7792,E,1,10,0.8,260.7,M,42.8,M,,0000*54
$GPRMC,065326.000,A,4913.6584,N,01736.7792,E,1.59,125.37,250212,,,A*6B
$GPGGA,065426.000,4913.6459,N,01736.8173,E,1,09,0.9,224.8,M,42.8,M,,0000*52
$GPRMC,065426.000,A,4913.6459,N,01736.8173,E,3.16,94.44,250212,,,A*5D
$GPGGA,065530.000,4913.6479,N,01736.8637,E,1,10,0.8,232.7,M,42.8,M,,0000*50
$GPRMC,065530.000,A,4913.6479,N,01736.8637,E,1.32,86.12,250212,,,A*5A
$GPGGA,065629.000,4913.6424,N,01736.9189,E,1,10,0.8,240.6,M,42.8,M,,0000*54
$GPRMC,065629.000,A,4913.6424,N,01736.9189,E,2.09,117.10,250212,,,A*6A
$GPGGA,065730.000,4913.6361,N,01736.9601,E,1,10,0.8,241.4,M,42.8,M,,0000*5F
$GPRMC,065730.000,A,4913.6361,N,01736.9601,E,2.57,121.64,250212,,,A*6F
$GPGGA,065829.000,4913.6245,N,01737.0164,E,1,10,0.8,247.0,M,42.8,M,,0000*51
$GPRMC,065829.000,A,4913.6245,N,01737.0164,E,1.68,92.40,250212,,,A*53
$GPGGA,065929.000,4913.6172,N,01737.0263,E,1,10,0.8,247.3,M,42.8,M,,0000*50
$GPRMC,065929.000,A,4913.6172,N,01737.0263,E,0.80,263.75,250212,,,A*6C
$GPGGA,070204.000,4913.5397,N,01737.0319,E,1,10,0.8,243.3,M,42.8,M,,0000*52
$GPRMC,070204.000,A,4913.5397,N,01737.0319,E,0.61,181.02,250212,,,A*6A
$GPGGA,070304.000,4913.5070,N,01737.0342,E,1,09,0.9,249.9,M,42.8,M,,0000*5E
$GPRMC,070304.000,A,4913.5070,N,01737.0342,E,1.69,157.17,250212,,,A*69
$GPGGA,070607.000,4913.3623,N,01737.0620,E,1,10,0.8,230.0,M,42.8,M,,0000*51
$GPRMC,070607.000,A,4913.3623,N,01737.0620,E,2.37,160.88,250212,,,A*62
$GPGGA,070707.000,4913.3219,N,01737.0713,E,1,10,0.8,237.2,M,42.8,M,,0000*59
$GPRMC,070707.000,A,4913.3219,N,01737.0713,E,0.90,203.60,250212,,,A*60
$GPGGA,070812.000,4913.2925,N,01737.0825,E,1,09,1.0,228.5,M,42.8,M,,0000*55
$GPRMC,070812.000,A,4913.2925,N,01737.0825,E,2.46,171.08,250212,,,A*65
$GPGGA,070912.000,4913.2826,N,01737.0793,E,1,08,1.2,150.6,M,42.8,M,,0000*58
$GPRMC,070912.000,A,4913.2826,N,01737.0793,E,0.01,70.55,250212,,,A*5D
$GPGGA,071003.000,4913.2384,N,01737.0643,E,1,08,1.2,204.7,M,42.8,M,,0000*5C
$GPRMC,071002.000,A,4913.2385,N,01737.0655,E,1.02,0.00,250212,,,A*68
$GPGGA,071112.000,4913.1919,N,01737.0609,E,1,09,1.0,209.2,M,42.8,M,,0000*55
$GPRMC,071112.000,A,4913.1919,N,01737.0609,E,0.00,173.24,250212,,,A*6D
$GPGGA,071213.000,4913.1798,N,01737.0885,E,1,10,0.8,211.2,M,42.8,M,,0000*52
$GPRMC,071213.000,A,4913.1798,N,01737.0885,E,2.82,130.24,250212,,,A*6D
$GPGGA,071313.000,4913.1871,N,01737.1504,E,1,10,0.8,217.2,M,42.8,M,,0000*58
$GPRMC,071313.000,A,4913.1871,N,01737.1504,E,3.33,105.45,250212,,,A*6B
$GPGGA,071413.000,4913.1937,N,01737.2195,E,1,10,0.8,210.2,M,42.8,M,,0000*54
$GPRMC,071413.000,A,4913.1937,N,01737.2195,E,2.28,103.26,250212,,,A*68
$GPGGA,071513.000,4913.1546,N,01737.2376,E,1,10,0.8,194.3,M,42.8,M,,0000*5E
$GPRMC,071513.000,A,4913.1546,N,01737.2376,E,0.84,148.10,250212,,,A*62
$GPGGA,071612.000,4913.1286,N,01737.1920,E,1,10,0.8,208.1,M,42.8,M,,0000*59
$GPRMC,071612.000,A,4913.1286,N,01737.1920,E,1.13,231.93,250212,,,A*68
$GPGGA,071712.000,4913.1297,N,01737.1922,E,1,08,0.9,218.0,M,42.8,M,,0000*52
$GPRMC,071712.000,A,4913.1297,N,01737.1922,E,0.00,0.00,250212,,,A*62
$GPGGA,071812.000,4913.1197,N,01737.1541,E,1,10,0.8,212.8,M,42.8,M,,0000*5D
$GPRMC,071812.000,A,4913.1197,N,01737.1541,E,0.94,245.41,250212,,,A*6C
