@NikonAW100/ver1.0/wgs84
$GPGGA,092549.000,4912.5092,N,01736.2281,E,1,06,2.0,217.4,M,42.8,M,,0000*5F
$GPRMC,092549.000,A,4912.5092,N,01736.2281,E,4.57,264.80,250212,,,A*6F
$GPGGA,092656.000,4912.5042,N,01736.0346,E,1,06,2.0,215.5,M,42.8,M,,0000*54
$GPRMC,092656.000,A,4912.5042,N,01736.0346,E,2.28,273.76,250212,,,A*66
$GPGGA,092754.000,4912.5438,N,01735.9575,E,1,07,1.2,201.3,M,42.8,M,,0000*51
$GPRMC,092754.000,A,4912.5438,N,01735.9575,E,7.50,352.13,250212,,,A*6B
$GPGGA,092854.000,4912.5723,N,01735.7892,E,1,07,1.2,209.4,M,42.8,M,,0000*52
$GPRMC,092854.000,A,4912.5723,N,01735.7892,E,9.93,248.72,250212,,,A*6B
$GPGGA,092954.000,4912.5600,N,01735.6960,E,1,07,1.2,213.5,M,42.8,M,,0000*54
$GPRMC,092954.000,A,4912.5600,N,01735.6960,E,5.31,289.13,250212,,,A*69
$GPGGA,093054.000,4912.5209,N,01735.4999,E,1,07,1.2,212.9,M,42.8,M,,0000*58
$GPRMC,093054.000,A,4912.5209,N,01735.4999,E,5.83,176.62,250212,,,A*64
$GPGGA,093154.000,4912.4752,N,01735.2617,E,1,07,1.2,214.1,M,42.8,M,,0000*52
$GPRMC,093154.000,A,4912.4752,N,01735.2617,E,6.86,315.91,250212,,,A*6D
$GPGGA,093254.000,4912.4294,N,01735.1034,E,1,07,1.2,208.1,M,42.8,M,,0000*57
$GPRMC,093254.000,A,4912.4294,N,01735.1034,E,6.05,162.37,250212,,,A*60
$GPGGA,093354.000,4912.3258,N,01735.1573,E,1,07,1.2,218.3,M,42.8,M,,0000*54
$GPRMC,093354.000,A,4912.3258,N,01735.1573,E,1.63,118.77,250212,,,A*6E
$GPGGA,093454.000,4912.2915,N,01734.9937,E,1,07,1.2,212.5,M,42.8,M,,0000*59
$GPRMC,093454.000,A,4912.2915,N,01734.9937,E,3.67,239.26,250212,,,A*6D
$GPGGA,093554.000,4912.2371,N,01734.8842,E,1,06,3.5,215.4,M,42.8,M,,0000*50
$GPRMC,093554.000,A,4912.2371,N,01734.8842,E,6.38,152.16,250212,,,A*64
$GPGGA,093654.000,4912.1716,N,01734.8381,E,1,06,3.5,205.7,M,42.8,M,,0000*53
$GPRMC,093653.000,A,4912.1713,N,01734.8361,E,0.08,80.36,250212,,,A*50
$GPGGA,093757.000,4912.1663,N,01734.8211,E,1,07,1.2,214.2,M,42.8,M,,0000*5B
$GPRMC,093757.000,A,4912.1663,N,01734.8211,E,6.36,260.02,250212,,,A*65
$GPGGA,093857.000,4912.1443,N,01734.6472,E,1,07,1.2,210.2,M,42.8,M,,0000*5D
$GPRMC,093857.000,A,4912.1443,N,01734.6472,E,6.75,264.28,250212,,,A*6C
$GPGGA,093957.000,4912.1321,N,01734.5082,E,1,07,1.2,217.7,M,42.8,M,,0000*55
$GPRMC,093957.000,A,4912.1321,N,01734.5082,E,0.00,279.25,250212,,,A*63
$GPGGA,094158.000,4912.1632,N,01734.3512,E,1,07,1.2,217.7,M,42.8,M,,0000*58
$GPRMC,094158.000,A,4912.1632,N,01734.3512,E,6.91,275.67,250212,,,A*6A
$GPGGA,094259.000,4912.1538,N,01734.1258,E,1,08,1.1,210.4,M,42.8,M,,0000*50
$GPRMC,094259.000,A,4912.1538,N,01734.1258,E,8.74,267.39,250212,,,A*67
$GPGGA,094359.000,4912.1418,N,01733.9109,E,1,07,1.2,207.4,M,42.8,M,,0000*50
$GPRMC,094359.000,A,4912.1418,N,01733.9109,E,8.56,249.83,250212,,,A*60
$GPGGA,094500.000,4912.1165,N,01733.7140,E,1,07,1.2,200.5,M,42.8,M,,0000*50
$GPRMC,094500.000,A,4912.1165,N,01733.7140,E,7.13,264.92,250212,,,A*67
$GPGGA,094700.000,4912.0653,N,01733.3013,E,1,07,1.2,225.0,M,42.8,M,,0000*50
$GPRMC,094700.000,A,4912.0653,N,01733.3013,E,5.18,257.95,250212,,,A*6B
$GPGGA,094800.000,4911.9981,N,01733.1237,E,1,07,1.2,198.1,M,42.8,M,,0000*57
$GPRMC,094800.000,A,4911.9981,N,01733.1237,E,8.93,248.06,250212,,,A*62
$GPGGA,094900.000,4911.9159,N,01732.9366,E,1,07,1.2,203.6,M,42.8,M,,0000*51
$GPRMC,094900.000,A,4911.9159,N,01732.9366,E,7.79,192.95,250212,,,A*67
$GPGGA,095000.000,4911.8226,N,01732.7809,E,1,07,1.2,211.1,M,42.8,M,,0000*5B
$GPRMC,095000.000,A,4911.8226,N,01732.7809,E,8.65,255.89,250212,,,A*6E
$GPGGA,095100.000,4911.7840,N,01732.7236,E,1,07,1.2,206.4,M,42.8,M,,0000*5A
$GPRMC,095100.000,A,4911.7840,N,01732.7236,E,1.62,340.64,250212,,,A*64
$GPGGA,095200.000,4911.7862,N,01732.7014,E,1,07,1.2,216.0,M,42.8,M,,0000*5E
$GPRMC,095200.000,A,4911.7862,N,01732.7014,E,0.83,141.44,250212,,,A*6A
$GPGGA,095300.000,4911.7762,N,01732.7441,E,1,07,1.2,183.8,M,42.8,M,,0000*53
$GPRMC,095300.000,A,4911.7762,N,01732.7441,E,0.55,310.80,250212,,,A*65
$GPGGA,095400.000,4911.7842,N,01732.7121,E,1,07,1.2,208.9,M,42.8,M,,0000*5B
$GPRMC,095400.000,A,4911.7842,N,01732.7121,E,0.46,109.72,250212,,,A*69
$GPGGA,095500.000,4911.8033,N,01732.6833,E,1,06,2.9,202.1,M,42.8,M,,0000*5B
$GPRMC,095500.000,A,4911.8033,N,01732.6833,E,2.92,26.96,250212,,,A*5F
$GPGGA,095559.000,4911.8177,N,01732.6141,E,1,07,1.2,214.8,M,42.8,M,,0000*5D
$GPRMC,095559.000,A,4911.8177,N,01732.6141,E,4.94,273.76,250212,,,A*62
$GPGGA,095659.000,4911.8125,N,01732.4776,E,1,07,1.2,184.3,M,42.8,M,,0000*58
$GPRMC,095659.000,A,4911.8125,N,01732.4776,E,6.66,259.43,250212,,,A*67
$GPGGA,095759.000,4911.7501,N,01732.5958,E,1,04,3.5,222.1,M,42.8,M,,0000*5C
$GPRMC,095759.000,A,4911.7501,N,01732.5958,E,2.93,326.78,250212,,,A*67
$GPGGA,100518.000,4911.7621,N,01732.5287,E,1,06,2.1,189.6,M,42.8,M,,0000*5C
$GPRMC,100518.000,A,4911.7621,N,01732.5287,E,0.27,351.72,250212,,,A*62
$GPGGA,100628.000,4911.7804,N,01732.5131,E,1,04,4.6,154.8,M,42.8,M,,0000*56
$GPRMC,100628.000,A,4911.7804,N,01732.5131,E,0.60,147.20,250212,,,A*64
$GPGGA,100728.158,4911.7531,N,01732.5439,E,1,04,2.7,195.4,M,42.8,M,,0000*5B
$GPRMC,100728.158,A,4911.7531,N,01732.5439,E,1.20,131.52,250212,,,A*6E
$GPGGA,100828.158,4911.7379,N,01732.5565,E,1,03,3.3,189.5,M,42.8,M,,0000*58
$GPRMC,100828.158,A,4911.7379,N,01732.5565,E,3.25,112.89,250212,,,A*63
$GPGGA,104801.699,4911.8204,N,01732.5095,E,1,03,6.9,187.3,M,42.8,M,,0000*54
$GPRMC,104801.699,A,4911.8204,N,01732.5095,E,12.06,328.30,250212,,,A*50
$GPGGA,104954.000,4911.7786,N,01732.5377,E,1,08,1.0,217.5,M,42.8,M,,0000*55
$GPRMC,104954.000,A,4911.7786,N,01732.5377,E,1.19,302.80,250212,,,A*67
$GPGGA,105104.000,4911.7230,N,01732.6113,E,1,08,1.0,203.5,M,42.8,M,,0000*57
$GPRMC,105104.000,A,4911.7230,N,01732.6113,E,2.01,300.33,250212,,,A*60
$GPGGA,105204.000,4911.7765,N,01732.7060,E,1,08,1.0,213.1,M,42.8,M,,0000*50
$GPRMC,105204.000,A,4911.7765,N,01732.7060,E,8.26,31.72,250212,,,A*59
$GPGGA,105259.000,4911.8646,N,01732.8418,E,1,07,1.2,201.9,M,42.8,M,,0000*55
$GPRMC,105259.000,A,4911.8646,N,01732.8418,E,5.80,40.99,250212,,,A*58
$GPGGA,105405.000,4911.9712,N,01733.0590,E,1,08,1.0,203.8,M,42.8,M,,0000*5D
$GPRMC,105404.000,A,4911.9698,N,01733.0552,E,10.75,52.93,250212,,,A*65
$GPGGA,105505.000,4912.0021,N,01733.0846,E,1,07,1.2,200.9,M,42.8,M,,0000*58
$GPRMC,105505.000,A,4912.0021,N,01733.0846,E,0.36,304.76,250212,,,A*6E
$GPGGA,105607.000,4911.9972,N,01733.0934,E,1,08,1.0,206.7,M,42.8,M,,0000*5D
$GPRMC,105607.000,A,4911.9972,N,01733.0934,E,2.02,137.02,250212,,,A*6A
$GPGGA,105707.000,4912.0367,N,01733.2166,E,1,08,1.0,192.5,M,42.8,M,,0000*59
$GPRMC,105707.000,A,4912.0367,N,01733.2166,E,8.98,56.74,250212,,,A*5C
$GPGGA,105807.000,4912.1020,N,01733.4236,E,1,08,1.0,266.9,M,42.8,M,,0000*53
$GPRMC,105807.000,A,4912.1020,N,01733.4236,E,12.10,83.85,250212,,,A*6F
$GPGGA,105907.000,4912.1129,N,01733.7289,E,1,08,1.0,193.6,M,42.8,M,,0000*5B
$GPRMC,105907.000,A,4912.1129,N,01733.7289,E,10.05,82.92,250212,,,A*60
$GPGGA,110005.000,4912.1264,N,01733.8374,E,1,08,1.0,185.8,M,42.8,M,,0000*5B
$GPRMC,110005.000,A,4912.1264,N,01733.8374,E,8.90,78.91,250212,,,A*5A
$GPGGA,110105.000,4912.1496,N,01734.0596,E,1,08,1.0,208.2,M,42.8,M,,0000*58
$GPRMC,110105.000,A,4912.1496,N,01734.0596,E,8.90,92.16,250212,,,A*5E
$GPGGA,110205.000,4912.1820,N,01734.1971,E,1,07,1.0,191.0,M,42.8,M,,0000*50
$GPRMC,110205.000,A,4912.1820,N,01734.1971,E,8.33,83.88,250212,,,A*56
$GPGGA,110305.000,4912.1539,N,01734.4190,E,1,08,1.0,113.2,M,42.8,M,,0000*51
$GPRMC,110305.000,A,4912.1539,N,01734.4190,E,0.00,314.98,250212,,,A*64
$GPGGA,110405.000,4912.1384,N,01734.4834,E,1,08,1.0,193.9,M,42.8,M,,0000*52
$GPRMC,110405.000,A,4912.1384,N,01734.4834,E,2.81,109.52,250212,,,A*67
$GPGGA,110505.000,4912.1364,N,01734.4547,E,1,08,1.0,212.7,M,42.8,M,,0000*50
$GPRMC,110505.000,A,4912.1364,N,01734.4547,E,0.00,147.00,250212,,,A*67
$GPGGA,110605.000,4912.1379,N,01734.4801,E,1,08,1.0,203.5,M,42.8,M,,0000*52
$GPRMC,110605.000,A,4912.1379,N,01734.4801,E,0.00,0.00,250212,,,A*65
$GPGGA,110705.000,4912.1358,N,01734.4725,E,1,08,1.0,218.1,M,42.8,M,,0000*57
$GPRMC,110705.000,A,4912.1358,N,01734.4725,E,0.35,27.94,250212,,,A*50
$GPGGA,110805.000,4912.1252,N,01734.4802,E,1,07,1.2,237.6,M,42.8,M,,0000*5E
$GPRMC,110805.000,A,4912.1252,N,01734.4802,E,0.00,0.00,250212,,,A*60
$GPGGA,110905.000,4912.1325,N,01734.4814,E,1,08,1.0,217.3,M,42.8,M,,0000*53
$GPRMC,110905.000,A,4912.1325,N,01734.4814,E,0.00,309.38,250212,,,A*66
$GPGGA,111005.203,4912.1302,N,01734.4807,E,1,06,1.0,210.9,M,42.8,M,,0000*5E
$GPRMC,111005.203,A,4912.1302,N,01734.4807,E,0.48,122.00,250212,,,A*64
$GPGGA,111105.000,4912.1266,N,01734.4926,E,1,08,0.9,246.1,M,42.8,M,,0000*52
$GPRMC,111105.000,A,4912.1266,N,01734.4926,E,0.00,335.65,250212,,,A*6E
$GPGGA,111205.000,4912.1279,N,01734.4797,E,1,08,0.9,232.7,M,42.8,M,,0000*5E
$GPRMC,111205.000,A,4912.1279,N,01734.4797,E,1.13,88.90,250212,,,A*5B
$GPGGA,111305.000,4912.1344,N,01734.4795,E,1,07,1.2,202.8,M,42.8,M,,0000*5B
$GPRMC,111305.000,A,4912.1344,N,01734.4795,E,0.74,0.00,250212,,,A*6E
$GPGGA,111405.000,4912.1231,N,01734.4784,E,1,07,0.9,213.6,M,42.8,M,,0000*5B
$GPRMC,111405.000,A,4912.1231,N,01734.4784,E,2.57,53.78,250212,,,A*50
$GPGGA,111504.000,4912.1446,N,01734.4866,E,1,08,0.9,176.9,M,42.8,M,,0000*5E
$GPRMC,111504.000,A,4912.1446,N,01734.4866,E,0.94,123.65,250212,,,A*62
$GPGGA,111604.000,4912.1408,N,01734.5743,E,1,08,0.9,231.4,M,42.8,M,,0000*53
$GPRMC,111604.000,A,4912.1408,N,01734.5743,E,3.17,165.85,250212,,,A*66
